{
"type": "FeatureCollection",
"name": "data",
"crs": { "type": "name", "properties": { "name": "urn:ogc:def:crs:OGC:1.3:CRS84" } },
"features": [
{ "type": "Feature", "properties": { "Category": "Awards & Honors", "Description": "Western Association of Map Libraries Early Career Librarian Scholarship recipient", "Date": "2017", "Notes": "Received a scholarship to attend the WAML conference in Austin, Texas.", "Location": "University of Texas, Austin, Texas", "Latitude": 30.2849185, "Longitude": -97.7340567 }, "geometry": { "type": "Point", "coordinates": [ -97.7340567, 30.2849185 ] } },
{ "type": "Feature", "properties": { "Category": "Awards & Honors", "Description": "IASSIST Conference Fellow", "Date": "2019", "Notes": "Received a conference fellowship to present my paper “Reactions vs Reality: using sentiment analysis to measure university students’ confidence of concepts while learning ArcGIS.”", "Location": "University of New South Wales, Sydney, Australia", "Latitude": -33.917347, "Longitude": 151.2312675 }, "geometry": { "type": "Point", "coordinates": [ 151.2312675, -33.917347 ] } },
{ "type": "Feature", "properties": { "Category": "Conference", "Description": "American Library Association annual conference", "Date": "2017", "Notes": null, "Location": "The University of Chicago, Hyde Park, Chicago, Illinois", "Latitude": 41.7919067, "Longitude": -87.6028229 }, "geometry": { "type": "Point", "coordinates": [ -87.6028229, 41.7919067 ] } },
{ "type": "Feature", "properties": { "Category": "Conference", "Description": "Geo4Lib Camp", "Date": "2017, 2019", "Notes": null, "Location": "Stanford University, Palo Alto, California", "Latitude": 37.4274745, "Longitude": -122.169719 }, "geometry": { "type": "Point", "coordinates": [ -122.169719, 37.4274745 ] } },
{ "type": "Feature", "properties": { "Category": "Conference", "Description": "IASSIST annual conference", "Date": "2018", "Notes": "Attended the conference and presented on a panel with colleagues about \"Challenges in Harmonizing Geospatial Metadata.\"", "Location": "Concordia University, Montreal, Canada", "Latitude": 45.4945643, "Longitude": -73.5773775 }, "geometry": { "type": "Point", "coordinates": [ -73.5773775, 45.4945643 ] } },
{ "type": "Feature", "properties": { "Category": "Education", "Description": "M.S., Information Sciences<br>University of Tennessee, Knoxville", "Date": "2016", "Notes": "Focused courses in government and geographic information. Gave the student speech at the commencement ceremony.", "Location": "The University of Tennessee, Knoxville, Tennessee", "Latitude": 35.9544013, "Longitude": -83.9294564 }, "geometry": { "type": "Point", "coordinates": [ -83.9294564, 35.9544013 ] } },
{ "type": "Feature", "properties": { "Category": "Education", "Description": "B.S., Mass Communication<br>Middle Tennessee State University", "Date": "2012", "Notes": "Majored in journalism with double minors in global studies and American culture", "Location": "Murfreesboro, Tennessee", "Latitude": 35.8456213, "Longitude": -86.39027 }, "geometry": { "type": "Point", "coordinates": [ -86.39027, 35.8456213 ] } },
{ "type": "Feature", "properties": { "Category": "Employment", "Description": "Assistant Academic Librarian for Geospatial Services, New York University Abu Dhabi", "Date": "January 2018 - present", "Notes": null, "Location": "New York University Abu Dhabi, Saadiyat Island, Abu Dhabi United Arab Emirates", "Latitude": 24.5238948, "Longitude": 54.4345558 }, "geometry": { "type": "Point", "coordinates": [ 54.4345558, 24.5238948 ] } },
{ "type": "Feature", "properties": { "Category": "Employment", "Description": "Resident Librarian for GIS, The University of Chicago Library, Chicago, Illinois", "Date": "August 2016 - December 2017", "Notes": null, "Location": "University of Chicago, Chicago, Illinois", "Latitude": 41.7886079, "Longitude": -87.5987133 }, "geometry": { "type": "Point", "coordinates": [ -87.5987133, 41.7886079 ] } },
{ "type": "Feature", "properties": { "Category": "Employment", "Description": "International Instructor, Space Camp Turkey", "Date": "May 2012 - September 2013", "Notes": null, "Location": "ESBAS, Izmir, Turkey", "Latitude": 38.3369823, "Longitude": 27.1331058 }, "geometry": { "type": "Point", "coordinates": [ 27.1331058, 38.3369823 ] } },
{ "type": "Feature", "properties": { "Category": "Employment", "Description": "MapGive Intern, U.S. Department of State, Office of the Geographer, Humanitarian Information Unit", "Date": "August 2015 - June 2016", "Notes": "This internship was a virtual placement, so I was able to work on key projects for global policy makers and diplomats while based in Tennessee.", "Location": "U.S. Department of State, Washington D.C.", "Latitude": 38.8942702, "Longitude": -77.0484409 }, "geometry": { "type": "Point", "coordinates": [ -77.0484409, 38.8942702 ] } },
{ "type": "Feature", "properties": { "Category": "Workshop", "Description": "NYU PSL Global Alliance Workshop in the Spatial Humanities", "Date": "June 2018", "Notes": "I attended and presented two sessions at this international collaborative workshop between NYU and PSL.", "Location": "Ecole Normale Superieure, Paris, France", "Latitude": 48.8422058, "Longitude": 2.3451689 }, "geometry": { "type": "Point", "coordinates": [ 2.3451689, 48.8422058 ] } },
{ "type": "Feature", "properties": { "Category": "Conference", "Description": "Digital Humanities conference", "Date": "2019", "Notes": "Attended the conference to present with my co-authors the paper \"Using Visualization to Understand the Complex Spatiality of Mappae Mundi.\"", "Location": "Utrecht, The Netherlands", "Latitude": 52.0907374, "Longitude": 5.1214201 }, "geometry": { "type": "Point", "coordinates": [ 5.1214201, 52.0907374 ] } },
{ "type": "Feature", "properties": { "Category": "Conference", "Description": "Library UX", "Date": "2017", "Notes": "Presented a lightning talk about my analysis and research surveying users about GIS in the library.", "Location": "North Park University, Chicago, Illinois", "Latitude": 41.97276, "Longitude": -87.708017 }, "geometry": { "type": "Point", "coordinates": [ -87.708017, 41.97276 ] } },
{ "type": "Feature", "properties": { "Category": "Conference", "Description": "LOEX", "Date": "2017", "Notes": "Presented my poster \"Creating an infrastructure for GIS instruction at an academic library\"", "Location": "Lexington, Kentucky", "Latitude": 38.0405837, "Longitude": -84.5037164 }, "geometry": { "type": "Point", "coordinates": [ -84.5037164, 38.0405837 ] } },
{ "type": "Feature", "properties": { "Category": "Workshop", "Description": "Digital Huamnities Summer Institute", "Date": "2019", "Notes": "Attended the course “The History of the Map.\"", "Location": "The University of Victoria, British Columbia", "Latitude": 48.4634067, "Longitude": -123.3116935 }, "geometry": { "type": "Point", "coordinates": [ -123.3116935, 48.4634067 ] } },
{ "type": "Feature", "properties": { "Category": "Workshop", "Description": "Australasian Rare Book Summer School", "Date": "2020", "Notes": "Attended the course “Introduction to Humanities Data Analysis and Visualization in R\"", "Location": "The State Library of New South Wales, Sydney, Australia", "Latitude": -33.8661339, "Longitude": 151.2132688 }, "geometry": { "type": "Point", "coordinates": [ 151.2132688, -33.8661339 ] } },
{ "type": "Feature", "properties": { "Category": "Employment", "Description": "Graduate Research Assistant<br>Pendergrass Agriculture and Veterinary Medicine Library<br>The University of Tennessee Libraries", "Date": "2015-2016", "Notes": "Assisted with instruction and outreach for the college of agricultural sciences and natural resources. Saturday supervisor.", "Location": "Pendergrass Agriculture Library, Knoxville, Tennessee", "Latitude": 35.9455911, "Longitude": -83.9404131 }, "geometry": { "type": "Point", "coordinates": [ -83.9404131, 35.9455911 ] } }
]
}
